Location,lat,lon,type
Mount Rushmore,43.8791,-103.4591,Monument
Crazy Horse Memorial,43.6412,-103.5403,Monument
Harney Peak (Black Elk Peak),43.8658,-103.5324,Summit
Deadwood,44.3766,-103.7291,Historic Town
Custer State Park,43.7311,-103.4164,State Park
Spearfish Canyon,44.4873,-103.7782,Canyon
Wind Cave National Park,43.5578,-103.4067,National Park
Jewel Cave National Monument,43.7288,-103.8284,National Monument
